[{"meetingID":"445","streetAddress":"7 East 10th Street","city":"New York","state":"NY","zipCode":"10003","lat":"40.7332540959031","lng":"-73.9948230189705","buildingName":"N.Y.U Bronfman Center","wheelChairAccess":false,"roomFloor":"2nd Floor","detailsBox":"Only meets on the 1st Wednesday of the month. A.A.s 12 Concepts Meeting."},{"meetingID":"394","streetAddress":"155 East 22nd Street","city":"New York","state":"NY","zipCode":"10010","lat":"40.6456241405083","lng":"-73.9566432425704","buildingName":"Gustavus Adolphus Church","wheelChairAccess":false,"roomFloor":"Basement","detailsBox":"Trad.1st Wed., Fri.=Topic, Sat.=Round Robin Sharing All meetings are non-smoking."},{"meetingID":"1463","streetAddress":"61 Fourth Avenue","city":"New York","state":"NY","zipCode":"10003","lat":"40.6823550359262","lng":"-73.9795868290333","buildingName":"Three Jewels Community Center","wheelChairAccess":false,"roomFloor":"3rd Floor","detailsBox":"Topic meeting, focus is on meditation Thursday meeting ends at 7:10"},{"meetingID":"43","streetAddress":"208 West 13th Street","city":"New York","state":"NY","zipCode":"10011","lat":"40.7381015874774","lng":"-74.0009719369804","buildingName":"Lesbian, Gay, Bi-Sexual & Transgender Community Center","wheelChairAccess":false,"roomFloor":"3rd Floor Room #312","detailsBox":"GLBT Focus. All are welcome."},{"meetingID":"45","streetAddress":"123 East 15th Street","city":"New York","state":"NY","zipCode":"10003","lat":"40.6470987877411","lng":"-73.9654484272783","buildingName":"Seafarers & Intl House","wheelChairAccess":true,"roomFloor":"2nd Floor Conference Room","detailsBox":""},{"meetingID":"52","streetAddress":"61 Gramercy Park North","city":"New York","state":"NY","zipCode":"10010","lat":"40.7387","lng":"-73.9866","buildingName":"Calvary Church Parish House","wheelChairAccess":false,"roomFloor":"","detailsBox":""},{"meetingID":"55","streetAddress":"155 East 22nd Street","city":"New York","state":"NY","zipCode":"10010","lat":"40.7385487033475","lng":"-73.9843107652274","buildingName":"Gustavus Adolphus Lutheran Church","wheelChairAccess":true,"roomFloor":"Ground Floor","detailsBox":""},{"meetingID":"56","streetAddress":"127 East 22nd Street","city":"New York","state":"NY","zipCode":"10010","lat":"40.6457700799023","lng":"-73.9566582324694","buildingName":"Mabel Bacon High School of the Future","wheelChairAccess":true,"roomFloor":"2nd Floor Auditorium","detailsBox":"no entry before 5:30"},{"meetingID":"1431","streetAddress":"602 East 9th Street","city":"New York","state":"NY","zipCode":"10009","lat":"40.7256865491758","lng":"-73.9791544569912","buildingName":"Trinity Lower East Side Lutheran Parish","wheelChairAccess":true,"roomFloor":"","detailsBox":"Ground Floor Anniversaries last Thursday of month"},{"meetingID":"1427","streetAddress":"125 West 14th Street","city":"New York","state":"NY","zipCode":"10011","lat":"40.737690789482","lng":"-73.997394196627","buildingName":"McBurney YMCA","wheelChairAccess":true,"roomFloor":"Kuttner Room","detailsBox":""},{"meetingID":"1577","streetAddress":"346 West 20th Street","city":"New York","state":"NY","zipCode":"10011","lat":"40.7440018974012","lng":"-74.0014509597722","buildingName":"St. Peters Episcopal Church- Rectory","wheelChairAccess":false,"roomFloor":"","detailsBox":"Wed. alternates between Step and Tradition"},{"meetingID":"76","streetAddress":"125 West 14th Street","city":"New York","state":"NY","zipCode":"10011","lat":"40.737690789482","lng":"-73.997394196627","buildingName":"McBurney YMCA","wheelChairAccess":true,"roomFloor":"Ground Floor","detailsBox":"Anniv. Last Thursday All Meetings Are Non-Smoking"},{"meetingID":"132","streetAddress":"414 East 14th Street","city":"New York","state":"NY","zipCode":"10009","lat":"40.6395417336981","lng":"-73.9651483760178","buildingName":"Our Lady of Immaculate Conception","wheelChairAccess":true,"roomFloor":"Auditorium","detailsBox":""},{"meetingID":"133","streetAddress":"119 Ninth Avenue","city":"New York","state":"NY","zipCode":"10011","lat":"40.7892802585622","lng":"-73.8488782528208","buildingName":"Fulton Senior Center","wheelChairAccess":true,"roomFloor":"","detailsBox":"Non-Smoking Meeting."},{"meetingID":"1493","streetAddress":"202 West 24 Street","city":"New York","state":"NY","zipCode":"10011","lat":"40.7447064928879","lng":"-73.9952593824343","buildingName":"Christopher House","wheelChairAccess":true,"roomFloor":"Mezzanine","detailsBox":"Check in at front desk all meetings are non-smoking"},{"meetingID":"140","streetAddress":"28 Gramercy Park South","city":"New York","state":"NY","zipCode":"10003","lat":"40.7371581633267","lng":"-73.9853137813165","buildingName":"Brotherhood Synagogue","wheelChairAccess":true,"roomFloor":"1st Floor","detailsBox":"Open Anniv Last Wednesday Non-Smoking Meeting."},{"meetingID":"141","streetAddress":"50 East 7th Street","city":"New York","state":"NY","zipCode":"10003","lat":"40.727842175225","lng":"-73.9880097296677","buildingName":"Middle Collegiate Church","wheelChairAccess":false,"roomFloor":"3rd and 4th floors","detailsBox":"LGBT; all welcome. Tues 7pm=Artists in Recovery, all welcome. 8:30 1st Tues of Month Bus mtg. at 8:05"},{"meetingID":"147","streetAddress":"273 Bowery","city":"New York","state":"NY","zipCode":"10003","lat":"40.7235","lng":"-73.9922","buildingName":"University Settlement House","wheelChairAccess":true,"roomFloor":"2nd Floor Classroom","detailsBox":""},{"meetingID":"166","streetAddress":"802 Broadway","city":"New York","state":"NY","zipCode":"10003","lat":"40.7320478046546","lng":"-73.9911904036263","buildingName":"Grace Church Office Building","wheelChairAccess":true,"roomFloor":"3rd Floor Conference Room","detailsBox":""},{"meetingID":"167","streetAddress":"28 Grammercy Park South","city":"New York","state":"NY","zipCode":"10010","lat":"40.7371581633267","lng":"-73.9853137813165","buildingName":"Brothhood Synagogue","wheelChairAccess":true,"roomFloor":"2nd floor","detailsBox":"Last Mon.6:30pm=Anniv Last Thursday Tradition"},{"meetingID":"438","streetAddress":"209 East 16th Street","city":"New York","state":"NY","zipCode":"10003","lat":"40.7346489697825","lng":"-73.9860544344337","buildingName":"Saint George Episcopal Church","wheelChairAccess":false,"roomFloor":"Basement","detailsBox":"Tue.Topic=Gratitude, Thu=11th Step Meditation Meeting,"},{"meetingID":"177","streetAddress":"44 2nd Avenue","city":"New York","state":"NY","zipCode":"10003","lat":"40.6736416428477","lng":"-73.9926313100494","buildingName":"Church of the Nativity","wheelChairAccess":false,"roomFloor":"Main Floor","detailsBox":"Spanish speaking meeting."},{"meetingID":"178","streetAddress":"229 West 14th Street","city":"New York","state":"NY","zipCode":"10011","lat":"40.7389806770461","lng":"-74.0004662035248","buildingName":"Our Lady of Guadalupe Church","wheelChairAccess":false,"roomFloor":"","detailsBox":"Mon=Step 1st Mon. Spanish speaking meetings."},{"meetingID":"201","streetAddress":"229 West 14th Street","city":"New York","state":"NY","zipCode":"10011","lat":"40.7389806770461","lng":"-74.0004662035248","buildingName":"Our Lady of Guadalupe Church","wheelChairAccess":false,"roomFloor":"","detailsBox":"Spanish speaking meeting."},{"meetingID":"222","streetAddress":"208 West 13th Street","city":"New York","state":"NY","zipCode":"10011","lat":"40.7381015874774","lng":"-74.0009719369804","buildingName":"Lesbian, Gay, Bi-Sexual & Transgender Community Center","wheelChairAccess":true,"roomFloor":"","detailsBox":"Interpreted for the deaf and hard of hearing Check listing at the center for the room number."},{"meetingID":"228","streetAddress":"28 Gramercy Park South","city":"New York","state":"NY","zipCode":"10003","lat":"40.7371581633267","lng":"-73.9853137813165","buildingName":"Brotherhood Synagogue","wheelChairAccess":true,"roomFloor":"","detailsBox":"Please Do Not Call the Synagogue for Meeting Info."},{"meetingID":"1462","streetAddress":"208 West 13th Street","city":"New York","state":"NY","zipCode":"10001","lat":"40.7381015874774","lng":"-74.0009719369804","buildingName":"Lesbian, Gay, Bisexual, & Transgender Community Center","wheelChairAccess":true,"roomFloor":"Room 212","detailsBox":"LA Transplants/Vistors    All Welcome"},{"meetingID":"1495","streetAddress":"307 West 26th Street","city":"New York","state":"NY","zipCode":"10011","lat":"40.7473708388913","lng":"-73.9972612945271","buildingName":"The Upright Citizens Brigade Theatre","wheelChairAccess":true,"roomFloor":"","detailsBox":""},{"meetingID":"1526","streetAddress":"343 West 25th Street","city":"New York","state":"NY","zipCode":"10001","lat":"40.7471694175559","lng":"-73.9987316903289","buildingName":"St. Columba Church","wheelChairAccess":false,"roomFloor":"","detailsBox":""},{"meetingID":"238","streetAddress":"80 Saint Mark's Place","city":"New York","state":"NY","zipCode":"10003","lat":"40.6816885738014","lng":"-73.9798566651115","buildingName":"Theatre 80","wheelChairAccess":false,"roomFloor":"2nd Floor","detailsBox":"Tue.7pm=4th & 5th Step Workshop, *Beginners 3 speaker panel Sat.& Sun.10am Meeting is in the main theatre."},{"meetingID":"239","streetAddress":"208 West 13th Street","city":"New York","state":"NY","zipCode":"10011","lat":"40.7381015874774","lng":"-74.0009719369804","buildingName":"Lesbian, Gay, Bi-Sexual & Transgender Community Center","wheelChairAccess":true,"roomFloor":"","detailsBox":"Gay & lesbian focus.  All are welcome."},{"meetingID":"242","streetAddress":"51 East 25th Street","city":"New York","state":"NY","zipCode":"10010","lat":"40.7418829781426","lng":"-73.9861912406155","buildingName":"Intercare","wheelChairAccess":true,"roomFloor":"Lower Level","detailsBox":""},{"meetingID":"243","streetAddress":"155 East 22nd Street","city":"New York","state":"NY","zipCode":"10010","lat":"40.7385487033475","lng":"-73.9843107652274","buildingName":"Gustavus Adolphus Church","wheelChairAccess":false,"roomFloor":"Basement","detailsBox":"Open Anniv Last Tuesday. All meetings are non-smoking."},{"meetingID":"268","streetAddress":"7 East 10th Street","city":"New York","state":"NY","zipCode":"10003","lat":"40.6483895400048","lng":"-73.9705803172279","buildingName":"Bronfman Center","wheelChairAccess":false,"roomFloor":"2nd Floor (Note: A photo ID is required to enter the building)","detailsBox":"Tue.2pm=11th Step Meditation, Thu.12:30pm=Topic, Fri.12:30pm Note: There Is No 2:00 Meeting On The Last Day Of The Month Anniv. Last Weekday of the Month"},{"meetingID":"269","streetAddress":"315 West 22nd Street","city":"New York","state":"NY","zipCode":"10011","lat":"40.7448881630939","lng":"-73.9993530097064","buildingName":"German Evangelist Lutheran Church of St. Paul","wheelChairAccess":false,"roomFloor":"1st Floor","detailsBox":"Anniv. Last Thursday"},{"meetingID":"279","streetAddress":"15 Rutherford Place","city":"New York","state":"NY","zipCode":"10003","lat":"40.7337916388529","lng":"-73.9850994733319","buildingName":"Friends Meeting House","wheelChairAccess":false,"roomFloor":"Basement","detailsBox":"T 1st Monday, Anniv Last Friday. All meetings are non-smoking."},{"meetingID":"1406","streetAddress":"25 East 15th","city":"New York","state":"NY","zipCode":"10003","lat":"40.7365752836269","lng":"-73.9926126552032","buildingName":"The Realization Center","wheelChairAccess":false,"roomFloor":"","detailsBox":""},{"meetingID":"286","streetAddress":"175 9th Avenue","city":"New York","state":"NY","zipCode":"10011","lat":"40.823374824522","lng":"-73.8091397830108","buildingName":"General Theological Seminary","wheelChairAccess":false,"roomFloor":"1st and 2nd Floor","detailsBox":"Fri.6pm OD=11th Step Meditation, Fri.7:15pm O=Anniv Last Friday, +HIV Topic LGBTQ Friendly.  All are welcome. Fri 7:15 CD=Relationships in Sobriety Business meeting at Holy Apostoles on 1st Monday a"},{"meetingID":"1416","streetAddress":"19 Union Square West","city":"New York","state":"NY","zipCode":"10003","lat":"40.7361","lng":"-73.9912","buildingName":"The Realization Center","wheelChairAccess":true,"roomFloor":"7th Floor Conference Room B","detailsBox":"Womens Meeting except for last Tuesday of the month."},{"meetingID":"293","streetAddress":"155 East 22nd Street","city":"New York","state":"NY","zipCode":"10010","lat":"40.6456241405083","lng":"-73.9566432425704","buildingName":"Gustavus Adolphus Church","wheelChairAccess":false,"roomFloor":"1st Floor","detailsBox":"Mon.BB Meeting is in the basement, Tue.6:45pm=T Last Tue. Basement is not Wheel Chair Accessible."},{"meetingID":"300","streetAddress":"423 East 23rd Street","city":"New York","state":"NY","zipCode":"10010","lat":"40.6395707540715","lng":"-73.9559739219442","buildingName":"Veterans Administration Hospital","wheelChairAccess":true,"roomFloor":"3rd fl Conference Room 3076 south","detailsBox":""},{"meetingID":"301","streetAddress":"209 East 16th Street","city":"New York","state":"NY","zipCode":"10003","lat":"40.7346489697825","lng":"-73.9860544344337","buildingName":"St. Georges Church","wheelChairAccess":false,"roomFloor":"Olmstead Hall","detailsBox":"T Last Tuesday, Thu.=Topic"},{"meetingID":"1587","streetAddress":"411 East 12th Street","city":"New York","state":"NY","zipCode":"10009","lat":"40.7300048121145","lng":"-73.983272777792","buildingName":"","wheelChairAccess":false,"roomFloor":"","detailsBox":""},{"meetingID":"322","streetAddress":"209 East 16th Street","city":"New York","state":"NY","zipCode":"10003","lat":"40.6447303448632","lng":"-73.9640552956335","buildingName":"St. Georges Church","wheelChairAccess":false,"roomFloor":"","detailsBox":"Beginners meeting meets in Olmsted Hall Big Book topic meeting meets in the Music Room"},{"meetingID":"744","streetAddress":"239 East 21st Street","city":"New York","state":"NY","zipCode":"10009","lat":"40.6485917411313","lng":"-73.9595762284765","buildingName":"Epiphany Roman Catholic Church","wheelChairAccess":false,"roomFloor":"Church Rectory","detailsBox":""},{"meetingID":"342","streetAddress":"12 West 12th Street","city":"New York","state":"NY","zipCode":"10011","lat":"40.7347362617638","lng":"-73.9949685934818","buildingName":"First Presbyterian Church","wheelChairAccess":true,"roomFloor":"6th Floor-Roof Level","detailsBox":"Tue=S Last Tue. & focus is on women with 5 years of sobriety or more.  All are welcome Fri=O Last Fri. & focus is on women with 5 years of sobriety or less.  All are welcome. Friday beginners = Trans Welcome"},{"meetingID":"344","streetAddress":"44 2nd Avenue","city":"New York","state":"NY","zipCode":"10003","lat":"40.7251584813201","lng":"-73.9900663060002","buildingName":"Church of the Nativity","wheelChairAccess":false,"roomFloor":"","detailsBox":""},{"meetingID":"354","streetAddress":"208 West 13th Street","city":"New York","state":"NY","zipCode":"10011","lat":"40.7381015874774","lng":"-74.0009719369804","buildingName":"Lesbian, Gay, Bi-Sexual & Transgender Community Center","wheelChairAccess":false,"roomFloor":"","detailsBox":"S&M Lifestyles"},{"meetingID":"357","streetAddress":"12 West 11th Street","city":"New York","state":"NY","zipCode":"10011","lat":"40.7340978938148","lng":"-73.9954339239964","buildingName":"Church of the Ascension Parish House","wheelChairAccess":false,"roomFloor":"Ground Floor","detailsBox":"T Last Tue., Fri=Topic, Sat=11th Step Meditation"},{"meetingID":"1566","streetAddress":"116 West 11th Street","city":"New York","state":"NY","zipCode":"10011","lat":"40.7355527136856","lng":"-73.9988979600227","buildingName":"PS 41 Elementary School","wheelChairAccess":false,"roomFloor":"","detailsBox":""},{"meetingID":"1042","streetAddress":"80 5th Avenue","city":"New York","state":"NY","zipCode":"10011","lat":"40.736026353707","lng":"-73.9937127134694","buildingName":"","wheelChairAccess":true,"roomFloor":"14th Floor Room #1408C","detailsBox":""},{"meetingID":"371","streetAddress":"116 West 11th Street","city":"New York","state":"NY","zipCode":"10011","lat":"40.7355527136856","lng":"-73.9988979600227","buildingName":"P.S. 41 (see footnote re: temp location)","wheelChairAccess":true,"roomFloor":"Cafeteria","detailsBox":"TEMPORARILY MEETING AT THE LGBT CENTER 208 W 13TH UNTIL FURTHER NOTICE"},{"meetingID":"443","streetAddress":"155 East 22nd Street","city":"New York","state":"NY","zipCode":"10010","lat":"40.7385487033475","lng":"-73.9843107652274","buildingName":"Gustavus Adolphus Church","wheelChairAccess":false,"roomFloor":"","detailsBox":"Meeting In Basement 11th Step Meditation Meeting"},{"meetingID":"373","streetAddress":"319 East 24th Street","city":"New York","state":"NY","zipCode":"10010","lat":"40.7384468750061","lng":"-73.9799409302958","buildingName":"East Midtown Plaza (Community Room H)","wheelChairAccess":true,"roomFloor":"","detailsBox":""},{"meetingID":"745","streetAddress":"10 Union Square East","city":"New York","state":"NY","zipCode":"10003","lat":"40.7348417836113","lng":"-73.9897829129804","buildingName":"Beth Israel Hospital @ Karpas Cancer Center Library","wheelChairAccess":true,"roomFloor":"4th Floor ConfRm.#4A18","detailsBox":"Focus is on dealing with cancer in recovery.  All are welcome"},{"meetingID":"377","streetAddress":"206","city":"New York","state":"NY","zipCode":"10003","lat":"40.643618256407","lng":"-73.9687592500723","buildingName":"All Saints Ukrainian Orthodox Church","wheelChairAccess":false,"roomFloor":"","detailsBox":"Sunday=As Bill Sees It Ukrainian language translation is available if needed."},{"meetingID":"378","streetAddress":"123 East 15th Street","city":"New York","state":"NY","zipCode":"10003","lat":"40.7347374906693","lng":"-73.9882404289172","buildingName":"Seafarers & International House","wheelChairAccess":true,"roomFloor":"2nd Floor","detailsBox":"Fri B = 1st Time in AA Only"},{"meetingID":"381","streetAddress":"411 East 12th Street","city":"New York","state":"NY","zipCode":"10009","lat":"40.7300048121145","lng":"-73.983272777792","buildingName":"","wheelChairAccess":false,"roomFloor":"Basement","detailsBox":"Sun.4:30=Business Mtg Only 1st & Anniv Last Sunday Sun.7:30pm,Tue.5:30,Wed.8:30pm & Sat.10:30am=11th Step Meditation Mon.5:30=Gratitude & Sat.7:30am=AA Grapevine"},{"meetingID":"152","streetAddress":"125 West 14th Street","city":"New York","state":"NY","zipCode":"10011","lat":"40.737690789482","lng":"-73.997394196627","buildingName":"McBurney YMCA","wheelChairAccess":true,"roomFloor":"1st Floor Meeting Room","detailsBox":""},{"meetingID":"1522","streetAddress":"208 West 13th Street","city":"New York","state":"NY","zipCode":"10011","lat":"40.7381015874774","lng":"-74.0009719369804","buildingName":"LGBT Community Center","wheelChairAccess":true,"roomFloor":"","detailsBox":"Trans-female focus"},{"meetingID":"392","streetAddress":"10 Union Square East","city":"New York","state":"NY","zipCode":"10003","lat":"40.7348","lng":"-73.9898","buildingName":"Beth Israel Phillips Ambulatory Center","wheelChairAccess":true,"roomFloor":"2nd Floor Conference Room #3","detailsBox":""},{"meetingID":"1037","streetAddress":"155 West 22nd Street","city":"New York","state":"NY","zipCode":"10011","lat":"40.742975462255","lng":"-73.9948187519044","buildingName":"St. Francis Residence","wheelChairAccess":true,"roomFloor":"1st Floor","detailsBox":""},{"meetingID":"397","streetAddress":"208 West 13th Street","city":"New York","state":"NY","zipCode":"10011","lat":"40.7381015874774","lng":"-74.0009719369804","buildingName":"Lesbian, Gay, Bi-Sexual & Transgender Community Center","wheelChairAccess":false,"roomFloor":"","detailsBox":"Sun.5:30pm meets only on the last Sunday of the month No Prayers - All Welcome - Check listing for Rm #"},{"meetingID":"398","streetAddress":"12 West 12th Street","city":"New York","state":"NY","zipCode":"10011","lat":"40.7347362617638","lng":"-73.9949685934818","buildingName":"First Presbyterian Church","wheelChairAccess":true,"roomFloor":"Third Floor","detailsBox":"1st & 3rd Wk=Step/Big Book , 2nd & 4th Wk=Promises"},{"meetingID":"1466","streetAddress":"20 Washington Square North","city":"New York","state":"NY","zipCode":"10011","lat":"40.7319","lng":"-73.9978","buildingName":"The Caring Community","wheelChairAccess":true,"roomFloor":"2nd Floor","detailsBox":""},{"meetingID":"837","streetAddress":"344 East 14th Street","city":"New York","state":"NY","zipCode":"10003","lat":"40.7318206198245","lng":"-73.9839070535178","buildingName":"14th Street Y","wheelChairAccess":true,"roomFloor":"","detailsBox":"Please Do Not Call the Y for Meeting Info."},{"meetingID":"407","streetAddress":"155 West 22nd Street","city":"New York","state":"NY","zipCode":"10011","lat":"40.742975462255","lng":"-73.9948187519044","buildingName":"St. Francis Residence","wheelChairAccess":false,"roomFloor":"1st Floor","detailsBox":""},{"meetingID":"416","streetAddress":"208 West 13th Street","city":"New York","state":"NY","zipCode":"10011","lat":"40.7381015874774","lng":"-74.0009719369804","buildingName":"Lesbian, Gay, Bi-Sexual & Transgender Community Center","wheelChairAccess":true,"roomFloor":"","detailsBox":"Lesbian and gay focus.  All are welcome Meeting format is \"Round Robin.\""},{"meetingID":"415","streetAddress":"602 East 9th Street","city":"New York","state":"NY","zipCode":"10009","lat":"40.7256865491758","lng":"-73.9791544569912","buildingName":"Trinity Lutheran Church","wheelChairAccess":true,"roomFloor":"Ground Floor","detailsBox":""},{"meetingID":"418","streetAddress":"208 West 13th Street","city":"New York","state":"NY","zipCode":"10011","lat":"40.7381015874774","lng":"-74.0009719369804","buildingName":"Gay, Lesbian, Bi-Sexual & Transgender Community Center","wheelChairAccess":false,"roomFloor":"","detailsBox":"Topic Meeting & Anniv. Last Tuesday."},{"meetingID":"421","streetAddress":"208 West 13th Street","city":"New York","state":"NY","zipCode":"10011","lat":"40.7381015874774","lng":"-74.0009719369804","buildingName":"Lesbian, Gay, Bi-Sexual & Transgender Community Center","wheelChairAccess":true,"roomFloor":"","detailsBox":"Womens Meeting Lesbian Focus.  All are welcome"},{"meetingID":"427","streetAddress":"19 Union Square West","city":"New York","state":"NY","zipCode":"10003","lat":"40.7360946967377","lng":"-73.9912290994142","buildingName":"Realization Center","wheelChairAccess":true,"roomFloor":"7th Floor Ask for room #","detailsBox":"11th Step Meditation Meeting."},{"meetingID":"1535","streetAddress":"173 East 3rd Street","city":"New York","state":"NY","zipCode":"10009","lat":"40.6478013436514","lng":"-73.9781507315578","buildingName":"Most Holy Redeemer Church","wheelChairAccess":false,"roomFloor":"","detailsBox":"Rotating Literature"}]